City_ID,City,Lat,Lng,Max Temp,Humidity,Cloudiness,Wind Speed,Country,Date
0,lagos,6.5833,3.75,26.18,85,62,2.96,NG,1721762397
1,mount gambier,-37.8333,140.7667,10.16,51,100,5.45,AU,1721762398
2,coyhaique,-45.5752,-72.0662,15.34,92,100,4.05,CL,1721762399
3,puerto natales,-51.7236,-72.4875,10.25,53,75,20.58,CL,1721762401
4,mumford,5.2618,-0.759,23.5,90,12,4.25,GH,1721762404
5,chos malal,-37.3781,-70.2709,14.77,33,99,7.51,AR,1721762405
6,west island,-12.1568,96.8225,25.99,78,20,4.63,CC,1721762407
7,port-aux-francais,-49.35,70.2167,1.01,99,100,12.84,TF,1721762408
8,invercargill,-46.4,168.35,5.01,86,66,1.79,NZ,1721762409
9,grytviken,-54.2811,-36.5092,-2.77,84,37,5.22,GS,1721762410
10,bilibino,68.0546,166.4372,16.25,92,100,1.31,RU,1721762411
11,altay,47.8667,88.1167,17.62,47,1,2.57,CN,1721762412
12,avarua,-21.2078,-159.775,24.03,78,20,2.06,CK,1721762414
13,stanley,54.868,-1.6985,15.44,81,0,2.57,GB,1721762415
14,rio grande,-32.035,-52.0986,23.06,79,51,3.43,BR,1721762416
15,axtla de terrazas,21.4667,-98.85,29.46,78,57,2.51,MX,1721762417
16,pisco,-13.7,-76.2167,18.34,77,0,4.63,PE,1721762418
17,kalmunai,7.4167,81.8167,27.61,73,43,4.78,LK,1721762420
18,tralee,52.2704,-9.7026,16.74,80,100,2.58,IE,1721762421
19,waitangi,-43.9535,-176.5597,8.79,99,100,5.81,NZ,1721762422
20,edinburgh of the seven seas,-37.0676,-12.3116,14.23,85,100,17.33,SH,1721762423
21,anadyr,64.75,177.4833,17.28,59,0,6.0,RU,1721762424
22,adamstown,-25.066,-130.1015,18.84,65,100,11.0,PN,1721762426
23,wailua homesteads,22.0669,-159.378,25.44,84,100,8.23,US,1721762428
24,nantucket,41.2835,-70.0995,23.94,88,75,4.12,US,1721762429
25,linxia chengguanzhen,35.6003,103.2064,16.58,88,100,1.4,CN,1721762430
26,yellowknife,62.456,-114.3525,28.01,45,100,5.66,CA,1721762432
27,sao tome,0.3365,6.7273,24.02,87,91,4.9,ST,1721762433
28,ushuaia,-54.8,-68.3,8.81,57,40,3.6,AR,1721762434
29,greymouth,-42.4667,171.2,2.97,90,8,2.75,NZ,1721762435
30,fort st. john,56.2499,-120.8529,11.94,76,100,8.75,CA,1721762436
31,mozhga,56.4447,52.2276,15.26,61,81,0.88,RU,1721762437
32,qaqortoq,60.7167,-46.0333,6.16,92,100,1.16,GL,1721762439
33,anna regina,7.2644,-58.5077,28.51,81,11,4.14,GY,1721762440
34,shingu,33.7333,135.9833,25.61,91,100,2.2,JP,1721762441
35,kuanda,56.3161,116.0806,20.78,80,97,1.88,RU,1721762442
36,quellon,-43.1167,-73.6167,10.41,89,85,4.59,CL,1721762445
37,cape coast,5.1053,-1.2466,23.81,88,8,4.18,GH,1721762446
38,ilulissat,69.2167,-51.1,7.01,81,40,2.06,GL,1721762447
39,port mathurin,-19.6833,63.4167,22.96,66,2,6.1,MU,1721762448
40,vernon,50.2581,-119.2691,27.01,22,0,1.03,CA,1721762449
41,bredasdorp,-34.5322,20.0403,11.35,74,100,2.37,ZA,1721762450
42,nadi,-17.8,177.4167,22.0,78,40,3.6,FJ,1721762452
43,hamilton,39.1834,-84.5333,31.22,55,40,4.63,US,1721762453
44,east london,-33.0153,27.9116,16.72,42,0,2.69,ZA,1721762454
45,simanggang,1.2472,111.4528,25.99,94,100,0.0,MY,1721762455
46,longyearbyen,78.2186,15.6401,9.91,93,40,5.14,SJ,1721762456
47,klyuchi,52.2667,79.1667,21.33,59,11,3.92,RU,1721762458
48,pilar,-9.5972,-35.9567,25.96,67,10,3.33,BR,1721762459
49,cannonvale,-20.2833,148.7,20.66,84,25,5.71,AU,1721762460
50,broome,42.2506,-75.833,28.01,64,75,3.6,US,1721762461
51,college,64.8569,-147.8028,25.5,51,20,2.06,US,1721762462
52,tinaquillo,9.9186,-68.3047,26.04,86,81,2.05,VE,1721762463
53,castillos,-34.1667,-53.8333,20.75,75,6,1.37,UY,1721762465
54,punta arenas,-53.15,-70.9167,10.06,57,20,15.43,CL,1721762466
55,albany,42.6001,-73.9662,26.92,71,75,0.45,US,1721762467
56,sydney,-33.8679,151.2073,9.1,85,7,3.6,AU,1721761886
57,hoopstad,-27.8327,25.9083,10.3,15,8,2.54,ZA,1721762469
58,bethel,41.3712,-73.414,24.89,86,100,2.57,US,1721762470
59,fonyod,46.7555,17.5795,26.08,48,98,3.23,HU,1721762471
60,el porvenir,13.7617,-87.3458,31.63,40,36,3.02,HN,1721762473
61,nizhnevartovsk,60.9344,76.5531,15.01,63,0,5.0,RU,1721762474
62,tiksi,71.6872,128.8694,5.55,78,83,1.87,RU,1721762475
63,saudarkrokur,65.7461,-19.6394,11.13,88,100,7.44,IS,1721762476
64,arba minch,6.0333,37.55,20.77,74,85,1.3,ET,1721762477
65,udachny,66.4167,112.4,9.5,62,100,6.56,RU,1721762478
66,blackmans bay,-43.0167,147.3167,10.07,65,99,0.45,AU,1721762480
67,madala,9.1044,7.2133,23.55,94,75,2.06,NG,1721762481
68,sitka,57.0531,-135.33,13.94,82,100,2.57,US,1721762482
69,vryburg,-26.9566,24.7284,12.14,14,43,3.81,ZA,1721762483
70,batang,-6.4846,110.7083,24.76,78,5,2.69,ID,1721762485
71,sisimiut,66.9395,-53.6735,7.41,80,20,6.06,GL,1721762486
72,thai binh,20.45,106.3333,25.17,92,100,2.66,VN,1721762487
73,la passe,45.5549,-0.8967,24.13,85,0,4.14,FR,1721762488
74,san antonio de pale,-1.4014,5.6325,22.98,86,50,4.44,GQ,1721762489
75,whitehorse,60.7161,-135.0538,15.43,93,100,1.54,CA,1721762203
76,lompoc,34.6391,-120.4579,29.36,58,0,4.12,US,1721762493
77,yetkul',54.8221,61.588,12.48,78,100,3.17,RU,1721762494
78,charlottetown,46.2352,-63.1267,23.09,71,100,1.54,CA,1721762495
79,mogocha,53.7333,119.7667,17.35,78,100,1.14,RU,1721762496
80,hawaiian paradise park,19.5933,-154.9731,26.73,86,40,1.54,US,1721762498
81,muktagacha,24.7667,90.2333,26.62,93,100,5.66,BD,1721762499
82,angaur state,6.906,134.13,25.98,88,100,6.66,PW,1721762500
83,dryden,49.7833,-92.7503,17.16,72,100,4.12,CA,1721762501
84,kodiak,57.79,-152.4072,11.73,100,100,4.12,US,1721762502
85,sarina,-21.4333,149.2167,18.48,1,74,3.88,AU,1721762504
86,la'ie,21.6477,-157.9253,27.98,82,64,4.02,US,1721762505
87,mahikeng,-25.8652,25.6442,16.99,16,1,1.54,ZA,1721762506
88,kushiro,42.975,144.3747,20.53,94,78,1.54,JP,1721762507
89,vadso,70.0744,29.7487,25.49,60,0,3.09,NO,1721762509
90,ta`u,-14.2336,-169.5144,26.5,68,59,8.79,AS,1721762510
91,talnakh,69.4865,88.3972,12.88,58,100,1.52,RU,1721762512
92,wewak,-3.5534,143.6268,26.13,89,100,6.22,PG,1721762513
93,iskateley,67.6803,53.1512,8.53,84,0,4.23,RU,1721762515
94,kostomuksha,64.571,30.5767,18.96,65,8,1.54,RU,1721762516
95,puerto ayora,-0.7393,-90.3518,25.98,81,100,5.29,EC,1721762518
96,minas de marcona,-15.2119,-75.1103,16.85,56,0,8.85,PE,1721762519
97,margaret river,-33.95,115.0667,12.38,65,99,4.88,AU,1721762520
98,selfoss,63.9331,-20.9971,11.69,98,100,7.33,IS,1721762521
99,feijo,-8.1642,-70.3536,36.33,26,0,1.72,BR,1721762522
100,koh kong,11.6175,102.9806,26.31,86,100,6.11,KH,1721762524
101,isafjordur,66.0755,-23.124,11.02,82,100,2.57,IS,1721762525
102,misratah,32.3754,15.0925,27.15,68,6,7.01,LY,1721762526
103,arraial do cabo,-22.9661,-42.0278,22.92,64,0,4.63,BR,1721762527
104,thompson,55.7435,-97.8558,22.09,43,20,2.57,CA,1721762528
105,forbes,-33.3833,148.0167,4.95,87,4,1.67,AU,1721762530
106,prince george,53.9166,-122.753,18.69,47,75,6.69,CA,1721762382
107,ribeira grande,38.5167,-28.7,25.22,69,20,4.02,PT,1721762532
108,keflavik,64.0049,-22.5624,10.95,100,100,8.23,IS,1721762533
109,vilyuchinsk,52.9306,158.4028,11.15,97,100,1.68,RU,1721762534
110,dudinka,69.4058,86.1778,11.52,53,100,8.91,RU,1721762535
111,aksu,41.1231,80.2644,26.31,42,100,9.94,CN,1721762536
112,luang namtha,20.9497,101.4011,22.96,97,100,0.91,LA,1721762538
113,crane,31.3974,-102.3501,29.09,37,1,4.0,US,1721762539
114,yara,20.2753,-76.9533,36.19,39,48,3.33,CU,1721762540
115,amga,60.8953,131.9608,12.34,97,14,0.47,RU,1721762541
116,kamen'-rybolov,44.7481,132.0403,19.29,95,92,2.82,RU,1721762542
117,chibougamau,49.9168,-74.3659,17.79,45,100,1.54,CA,1721762543
118,greenville,35.6127,-77.3663,27.09,100,100,2.06,US,1721762545
119,nahrin,36.0649,69.1334,27.08,28,46,0.85,AF,1721762546
120,tocopilla,-22.092,-70.1979,19.56,65,63,6.33,CL,1721762547
121,sinop,41.7711,34.8709,18.81,89,0,1.54,TR,1721762548
122,el gouna,27.3942,33.6782,37.05,31,0,6.35,EG,1721762549
123,newnham,-41.3833,147.1333,10.73,81,93,6.17,AU,1721762551
124,pangody,65.85,74.4859,9.05,68,87,4.63,RU,1721762552
125,nikolayevsk-on-amure,53.1406,140.73,12.54,99,100,1.99,RU,1721762553
126,santa marta,11.2408,-74.199,32.16,71,40,1.54,CO,1721762554
127,san-pedro,4.7485,-6.6363,24.29,85,72,3.51,CI,1721762555
128,katsuura,35.1333,140.3,25.98,93,100,8.43,JP,1721762556
129,nuuk,64.1835,-51.7216,8.34,81,20,6.17,GL,1721762558
130,karatas,36.582,35.3701,30.08,84,7,5.77,TR,1721762559
131,poronaysk,49.2167,143.1167,14.29,90,95,1.82,RU,1721762560
132,kaa-khem,51.6833,94.7333,17.02,71,100,1.68,RU,1721762561
133,shush,32.1942,48.2436,38.74,12,0,1.44,IR,1721762562
134,zemio,5.0314,25.1361,21.19,93,100,0.31,CF,1721762563
135,penhalonga,-18.8911,32.6978,12.59,41,0,1.66,ZW,1721762566
136,santa elena de uairen,4.6167,-61.1333,24.19,74,100,3.5,VE,1721762567
137,moree,-29.4667,149.85,6.75,70,0,3.12,AU,1721762568
138,constantia,44.1833,28.65,24.38,63,0,2.88,RO,1721762569
139,gadzhiyevo,69.2551,33.3362,19.25,61,100,1.57,RU,1721762570
140,port saint john's,-31.6229,29.5448,17.18,60,2,3.1,ZA,1721762572
141,olonkinbyen,70.9221,-8.7187,3.91,93,100,7.61,SJ,1721762573
142,monticello,45.3055,-93.7941,22.19,81,100,4.63,US,1721762574
143,darwin,-12.4611,130.8418,18.99,82,100,0.0,AU,1721762576
144,kailua-kona,19.6406,-155.9956,29.04,69,0,2.57,US,1721762577
145,kulhudhuffushi,6.6221,73.07,28.32,80,100,4.83,MV,1721762579
146,ende,-8.8432,121.6623,20.2,94,100,0.69,ID,1721762580
147,aasiaat,68.7098,-52.8699,3.83,88,82,1.6,GL,1721762582
148,weno,7.4515,151.8468,25.97,94,100,1.54,FM,1721762583
149,moa,20.6569,-74.9403,30.97,67,19,7.27,CU,1721762584
150,vorgashor,67.5833,63.95,9.24,72,49,3.98,RU,1721762586
151,fort bragg,35.139,-79.006,34.16,61,75,5.14,US,1721762587
152,trancas,-26.2314,-65.2803,25.11,35,1,7.56,AR,1721762589
153,silao,20.9333,-101.4333,24.21,53,75,4.63,MX,1721762570
154,bargaal,11.2864,51.0773,30.87,54,93,11.53,SO,1721762592
155,dawei,14.0833,98.2,25.34,93,100,4.08,MM,1721762593
156,ghanzi,-21.5667,21.7833,18.76,14,0,3.91,BW,1721762594
157,san patricio,28.017,-97.5169,33.4,56,71,4.35,US,1721762595
158,sechura,-5.5569,-80.8222,24.08,55,8,6.65,PE,1721762596
159,temiskaming shores,47.4938,-79.7153,15.89,72,100,3.85,CA,1721762598
160,miquelon,47.0975,-56.3814,20.0,86,100,6.68,PM,1721762599
161,veraval,20.9,70.3667,27.96,86,100,10.51,IN,1721762600
162,visakhapatnam,17.69,83.2093,26.94,94,75,5.14,IN,1721762601
163,uturoa,-16.7333,-151.4333,25.35,66,76,8.39,PF,1721762602
164,hithadhoo,-0.6,73.0833,28.51,77,100,4.42,MV,1721762603
165,guadalupe y calvo,26.1,-106.9667,20.09,70,80,3.56,MX,1721762605
166,mpongwe,-13.5091,28.155,18.72,27,0,3.72,ZM,1721762606
167,katsuren-haebaru,26.3369,127.8719,30.22,84,75,9.77,JP,1721762607
168,papatowai,-46.5619,169.4708,9.16,70,100,4.33,NZ,1721762608
169,alaghsas,17.0187,8.0168,37.62,28,14,2.13,NE,1721762609
170,enewetak,11.3474,162.3373,28.38,78,29,7.12,MH,1721762610
171,alamos,27.0167,-108.9333,30.83,51,97,1.51,MX,1721762612
172,knysna,-34.0363,23.0471,12.36,81,100,3.03,ZA,1721762614
173,basco,20.4487,121.9702,27.92,91,100,14.32,PH,1721762615
174,flying fish cove,-10.4217,105.6791,23.82,83,75,3.6,CX,1721762616
175,utrik,11.2278,169.8474,27.74,79,38,6.97,MH,1721762617
176,cavinti,14.2448,121.508,23.68,96,100,3.7,PH,1721762619
177,lebu,-37.6167,-73.65,11.76,84,98,6.74,CL,1721762620
178,blitar,-8.0983,112.1681,21.93,92,100,1.2,ID,1721762621
179,auki,-8.7676,160.7034,24.51,90,56,1.6,SB,1721762622
180,mana,5.6592,-53.7767,29.3,70,66,5.87,GF,1721762623
181,mount pearl,47.5166,-52.7813,24.07,47,100,6.17,CA,1721762586
182,valle de la pascua,9.2155,-66.0073,24.25,95,100,1.76,VE,1721762626
183,zhytomyr,50.2649,28.6767,20.23,58,5,2.09,UA,1721762539
184,baki,-7.6128,110.7839,23.53,82,100,2.52,ID,1721762629
185,berezovyy,51.6667,135.7,14.2,97,63,1.42,RU,1721762630
186,novo aripuana,-5.1206,-60.3797,37.18,22,4,1.82,BR,1721762631
187,yashikira,9.7667,3.4,23.42,92,94,1.65,NG,1721762632
188,christchurch,-43.5333,172.6333,4.82,79,3,3.09,NZ,1721762379
189,trincomalee,8.5711,81.2335,27.89,76,100,8.61,LK,1721762636
190,zhalantun,48.0,122.7167,22.23,65,100,2.66,CN,1721762637
191,fyodorovka,53.6314,62.7078,12.73,85,100,3.49,KZ,1721762638
192,bardai,11.65,7.2333,22.69,92,100,2.0,NG,1721762639
193,kapa'a,22.0752,-159.319,26.18,81,100,8.23,US,1721762641
194,caluula,11.9661,50.7569,31.06,63,99,1.63,SO,1721762642
195,kristiansund,63.1115,7.732,15.03,82,75,1.54,NO,1721762643
196,tupaciguara,-18.5922,-48.705,28.12,21,0,3.9,BR,1721762644
197,carlinville,39.2798,-89.8818,30.02,59,0,2.58,US,1721762645
198,berezovskiy,55.6,86.2,19.23,94,1,0.55,RU,1721762646
199,waveland,30.2869,-89.3762,31.69,70,75,4.12,US,1721762648
200,taunsa,30.7048,70.6505,41.21,27,100,3.63,PK,1721762649
201,springbok,-29.6643,17.8865,7.62,61,27,1.62,ZA,1721762650
202,kuusamo,65.9667,29.1833,22.02,53,0,1.03,FI,1721762653
203,niafunke,15.9322,-3.9906,35.52,38,100,3.62,ML,1721762654
204,aldinga beach,-35.2793,138.4604,14.81,56,100,10.05,AU,1721762655
205,north shore,-36.8,174.75,11.37,80,88,1.34,NZ,1721762656
206,tommot,58.9564,126.2925,15.36,92,8,0.52,RU,1721762657
207,kavaratti,10.5669,72.642,28.07,86,100,7.09,IN,1721762659
208,nar'yan-mar,67.6713,53.087,8.43,85,0,4.24,RU,1721762660
209,mantua,45.1667,10.7833,29.49,70,34,1.74,IT,1721762661
210,port elizabeth,-33.918,25.5701,15.17,92,20,7.72,ZA,1721762662
211,kununurra,-15.7667,128.7333,10.99,82,56,0.0,AU,1721762663
212,olyokminsk,60.3736,120.4264,17.18,84,33,2.72,RU,1721762548
213,ust-nera,64.5667,143.2,17.63,85,92,1.06,RU,1721762666
214,hami,42.8,93.45,27.39,19,1,2.58,CN,1721762667
215,de aar,-30.6497,24.0123,11.87,23,43,2.84,ZA,1721762668
216,tura,25.5198,90.2201,25.23,95,100,2.44,IN,1721762669
217,ambon,-3.6954,128.1814,26.04,95,40,1.54,ID,1721762670
218,hasaki,35.7333,140.8333,26.22,91,38,4.14,JP,1721762672
219,galveston,29.3669,-94.9669,27.77,79,100,1.79,US,1721762673
220,nuku'alofa,-21.1333,-175.2,19.19,100,20,1.03,TO,1721762674
221,fushun,41.8558,123.9233,22.84,98,74,1.94,CN,1721762675
222,portland,45.5234,-122.6762,23.36,58,0,4.12,US,1721762396
223,naze,28.3667,129.4833,26.51,86,100,5.84,JP,1721762486
224,luderitz,-26.6481,15.1594,13.08,79,3,3.8,NA,1721762679
225,ballito,-29.539,31.2144,17.08,88,20,1.54,ZA,1721762680
226,berdigestyakh,62.0989,126.6992,13.33,65,100,2.0,RU,1721762681
227,kismayo,-0.3582,42.5454,24.83,83,47,6.53,SO,1721762682
228,alofi,-19.0595,-169.9187,21.94,94,20,2.57,NU,1721762683
229,tarawa,1.419,172.984,28.05,83,40,3.09,KI,1721762685
230,dikhil,11.5,42.1667,34.28,32,100,1.14,DJ,1721762686
231,leava,-14.3,-178.1667,27.79,70,100,8.83,WF,1721762687
232,prince rupert,54.3161,-130.3201,14.83,88,100,6.69,CA,1721762403
233,vuktyl,63.8567,57.3094,12.82,73,100,2.05,RU,1721762689
234,coahuayana de hidalgo,18.7,-103.6583,31.97,57,66,1.79,MX,1721762690
235,badger,64.8,-147.5333,25.45,53,20,2.06,US,1721762692
236,arvayheer,46.2639,102.775,12.74,77,100,2.53,MN,1721762693
237,atafu village,-8.5421,-172.5159,27.89,79,99,7.37,TK,1721762694
238,kingston,17.997,-76.7936,33.53,66,20,13.89,JM,1721762695
239,malango,-2.9627,119.9001,19.59,99,100,0.53,ID,1721762696
240,nemuro,43.3236,145.575,17.92,95,35,7.44,JP,1721762698
241,homer,59.6425,-151.5483,14.94,84,100,1.54,US,1721762699
242,santa terezinha,-29.9002,-50.0904,18.41,81,27,3.34,BR,1721762700
243,tsiombe,-25.3,45.4833,19.09,72,0,4.51,MG,1721762701
244,howrah,22.5892,88.3103,28.0,94,40,2.06,IN,1721762702
245,argenton-sur-creuse,46.59,1.5198,24.19,90,27,1.94,FR,1721762704
246,machico,32.7,-16.7667,26.67,77,20,5.14,PT,1721762705
247,iqaluit,63.7506,-68.5145,18.85,45,40,7.2,CA,1721762706
248,beidao,34.5686,105.8933,21.42,90,100,4.18,CN,1721762707
249,hue,16.4667,107.6,30.06,58,75,1.54,VN,1721762708
250,orcopampa,-15.2661,-72.3417,15.63,16,2,4.39,PE,1721762710
251,chonchi,-42.6128,-73.8092,9.51,83,83,1.7,CL,1721762711
252,labrador city,52.9463,-66.9114,16.95,59,75,4.63,CA,1721762712
253,dunedin,-45.8742,170.5036,10.45,51,98,2.59,NZ,1721762713
254,pacocha,-17.5833,-71.3333,18.08,68,40,6.17,PE,1721762714
255,tucupita,9.0622,-62.051,28.85,85,98,2.32,VE,1721762715
256,vila franca do campo,37.7167,-25.4333,24.23,72,88,0.6,PT,1721762717
257,ixtapa,20.7,-105.2,31.57,62,75,4.12,MX,1721762718
258,nizhniy odes,63.6445,54.856,12.31,90,100,1.58,RU,1721762719
259,vorkuta,67.5,64.0,10.34,69,73,3.75,RU,1721762720
260,mili,6.0815,171.735,28.05,78,33,3.6,MH,1721762721
261,el granada,37.5027,-122.4694,34.71,51,0,4.12,US,1721762722
262,port alfred,-33.5906,26.891,15.22,60,0,3.72,ZA,1721762724
263,tarija,-21.5355,-64.7296,25.95,38,1,2.57,BO,1721762725
264,rongelap,11.1635,166.8941,28.04,79,19,6.37,MH,1721762726
265,lihue,21.9789,-159.3672,25.77,80,100,8.23,US,1721762727
266,obock,12.25,43.0833,30.17,50,100,6.73,DJ,1721762728
267,barao de cocais,-19.9458,-43.4872,27.21,29,0,2.62,BR,1721762730
268,banda aceh,5.5577,95.3222,27.65,75,99,5.75,ID,1721762731
269,egilsstadir,65.2653,-14.3948,15.95,51,75,4.63,IS,1721762732
270,kudat,6.8837,116.8477,25.96,94,100,1.03,MY,1721762733
271,nouadhibou,20.931,-17.0347,22.99,78,72,3.09,MR,1721762734
272,miranda,3.2499,-76.2281,27.07,46,100,1.32,CO,1721762736
273,san juan,-31.5375,-68.5364,20.57,23,0,1.56,AR,1721762737
274,takoradi,4.8845,-1.7554,24.14,84,93,4.2,GH,1721762738
275,ranau,5.9538,116.6641,22.01,89,100,1.08,MY,1721762739
276,port augusta,-32.5,137.7667,13.06,51,100,8.27,AU,1721762740
277,ebon,4.582,168.6964,28.38,77,100,5.15,MH,1721762742
278,tolanaro,-25.0319,46.9987,19.04,94,75,2.06,MG,1721762743
279,ust-tsilma,65.441,52.1498,11.13,70,0,2.4,RU,1721762744
280,morondava,-20.2833,44.2833,22.2,75,0,5.5,MG,1721762745
281,bria,6.5423,21.9863,22.1,94,100,1.43,CF,1721762746
282,inirida,3.8653,-67.9239,27.75,83,100,1.39,CO,1721762747
283,iwaki,37.05,140.8833,25.34,73,100,2.33,JP,1721762749
284,boende,-0.2167,20.8667,24.15,82,84,0.53,CD,1721762750
285,saldanha,-33.0117,17.9442,12.03,84,100,3.83,ZA,1721762751
286,amble,55.3333,-1.5833,15.42,88,97,1.54,GB,1721762752
287,muisne,0.6,-80.0333,25.57,76,95,4.09,EC,1721762753
288,newman,37.3138,-121.0208,38.9,13,5,0.4,US,1721762669
289,morrope,-6.5417,-80.0111,21.06,59,0,7.96,PE,1721762756
290,kosigi,15.85,77.2667,25.28,74,100,8.0,IN,1721762757
291,woolgoolga,-30.1106,153.2007,10.93,86,2,2.57,AU,1721762758
292,madang,-5.2246,145.7966,24.68,91,99,2.39,PG,1721762760
293,ilhabela,-23.7781,-45.3581,20.63,76,23,1.01,BR,1721762761
294,mossel bay,-34.1831,22.146,10.96,81,100,1.95,ZA,1721762763
295,jamestown,42.097,-79.2353,27.51,57,100,2.06,US,1721762765
296,kocarli,37.7611,27.7058,29.99,51,0,3.09,TR,1721762766
297,mitu,1.1983,-70.1733,26.68,88,56,1.04,CO,1721762767
298,ouallam,14.3188,2.0866,33.55,47,100,4.35,NE,1721762768
299,saint-pierre,-21.3393,55.4781,19.82,60,0,3.09,RE,1721762769
300,anar darah,32.7587,61.654,33.16,17,0,15.01,AF,1721762771
301,alice springs,-23.7,133.8833,9.75,37,0,3.6,AU,1721762772
302,bel ombre,-4.6167,55.4167,25.91,89,40,4.63,SC,1721762773
303,usinsk,65.9939,57.5281,10.64,78,5,5.42,RU,1721762774
304,tindouf,27.6711,-8.1474,45.25,9,20,6.17,DZ,1721762775
305,aktau,43.65,51.2,27.32,59,3,3.42,KZ,1721762777
306,pacific grove,36.6177,-121.9166,25.45,70,0,2.68,US,1721762778
307,camayenne,9.535,-13.6878,27.05,89,75,4.12,GN,1721762779
308,burang,30.25,81.1667,11.16,78,98,2.5,CN,1721762780
309,cockburn town,21.4612,-71.1419,28.53,79,3,8.26,TC,1721762781
310,tailai,46.3833,123.4,22.37,79,100,0.53,CN,1721762782
311,port macquarie,-31.4333,152.9167,6.15,98,8,0.89,AU,1721762784
312,ribeira brava,32.65,-17.0667,26.67,77,1,4.09,PT,1721762786
313,rouissat,31.9243,5.3502,37.04,20,0,4.63,DZ,1721762787
314,nabire,-3.3667,135.4833,23.79,96,100,1.58,ID,1721762788
315,nueva gerona,21.8833,-82.8,31.32,61,1,6.68,CU,1721762789
316,shamakhi,40.6314,48.6414,23.03,63,0,1.06,AZ,1721762791
317,usogorsk,63.4106,48.6872,13.23,86,6,1.42,RU,1721762792
318,ponta delgada,37.7333,-25.6667,24.4,73,75,3.09,PT,1721762793
319,wenling,28.3669,121.36,26.23,90,3,1.69,CN,1721762794
320,luganville,-15.5333,167.1667,24.69,84,55,4.85,VU,1721762795
321,la punta,-33.1837,-66.3127,19.73,44,0,5.37,AR,1721762797
322,smithers,54.7804,-127.1743,17.18,48,75,2.06,CA,1721762798
323,igarka,67.4667,86.5833,10.84,94,100,6.58,RU,1721762799
324,marat,25.0701,45.4615,34.42,13,19,4.87,SA,1721762800
325,hinton,53.4001,-117.5857,26.47,21,0,0.8,CA,1721762801
326,masuguru,-11.3667,38.4167,23.14,38,6,1.29,TZ,1721762804
327,urla,38.3229,26.764,33.22,43,0,5.92,TR,1721762805
328,barabai,-2.5833,115.3833,23.53,94,99,0.93,ID,1721762806
329,petropavlovsk-kamchatsky,53.0452,158.6483,10.33,100,100,3.0,RU,1721762807
330,cooma,-36.2333,149.1333,-0.15,95,100,1.35,AU,1721762808
331,shahr-e babak,30.1165,55.1186,30.31,15,4,4.52,IR,1721762810
332,conduaga,8.862,117.4893,26.55,89,100,2.69,PH,1721762812
333,onega,63.9061,38.1404,17.23,63,60,2.18,RU,1721762813
334,campoverde,-8.4753,-74.8058,31.83,28,5,0.81,PE,1721762814
335,selibaby,15.159,-12.1829,33.99,50,82,3.57,MR,1721762815
336,mhamid,29.82,-5.72,43.02,8,0,3.39,MA,1721762817
337,carnarvon,-24.8667,113.6333,16.24,71,7,8.39,AU,1721762818
338,ippy,6.2679,21.2247,21.48,96,99,1.57,CF,1721762819
339,senillosa,-39.0,-68.4167,20.88,9,66,1.33,AR,1721762820
340,palmer,42.1584,-72.3287,25.78,70,100,1.54,US,1721762821
341,guerrero negro,27.9769,-114.0611,25.75,57,94,5.94,MX,1721762822
342,watsa,3.0372,29.5355,18.39,98,100,0.6,CD,1721762824
343,port lincoln,-34.7333,135.8667,14.47,46,99,10.43,AU,1721762825
344,khandyga,62.6667,135.6,14.35,96,100,0.95,RU,1721762827
345,alotau,-10.3069,150.4462,23.36,97,100,1.37,PG,1721762828
346,puerto baquerizo moreno,-0.9,-89.6,23.55,69,75,6.69,EC,1721762829
347,tazacorte,28.629,-17.9293,24.53,83,40,6.17,ES,1721762831
348,malinyi,-8.9333,36.1333,20.75,47,2,0.97,TZ,1721762832
349,cabo san lucas,22.8909,-109.9124,35.17,36,0,4.63,MX,1721761991
350,tyre,33.2733,35.1939,28.96,71,0,2.35,LB,1721762834
351,klaksvik,62.2266,-6.589,11.51,83,15,6.16,FO,1721762835
352,tabou,4.423,-7.3528,24.65,80,69,3.81,CI,1721762836
353,hilo,19.7297,-155.09,27.38,84,40,1.79,US,1721762800
354,haiku-pauwela,20.9219,-156.3051,27.9,77,20,9.26,US,1721762839
355,krupka,50.6845,13.8582,21.95,72,35,3.13,CZ,1721762840
356,kone,-21.0595,164.8658,19.43,79,100,1.68,NC,1721762841
357,chipinge,-20.1883,32.6236,14.17,54,0,2.55,ZW,1721762842
358,el alcazar,-26.7146,-54.8152,27.1,46,100,1.24,AR,1721762843
359,magong,23.5654,119.5863,28.42,86,99,7.3,TW,1721762845
360,nova sintra,14.8667,-24.7167,24.95,80,100,4.2,CV,1721762846
361,atoka,34.4001,-96.0169,31.31,44,65,2.14,US,1721762847
362,acapulco de juarez,16.8634,-99.8901,31.9,66,40,5.14,MX,1721762848
363,buka,40.8108,69.1986,26.82,22,0,1.46,UZ,1721762849
364,kalibo (poblacion),11.7061,122.3644,23.99,85,100,4.21,PH,1721762851
365,swift current,50.2834,-107.8014,33.45,38,0,7.72,CA,1721762852
366,enid,36.3956,-97.8784,31.82,39,75,5.14,US,1721762853
367,touros,-5.1989,-35.4608,26.06,71,56,8.45,BR,1721762854
368,melfort,52.8667,-104.6177,21.07,64,1,3.6,CA,1721762855
369,boguchany,58.3814,97.4531,18.57,99,100,2.89,RU,1721762857
370,pangkalpinang,-2.1333,106.1333,24.1,92,75,2.09,ID,1721762858
371,leua,48.2156,18.6071,22.04,57,44,3.23,SK,1721762859
372,zamora,-4.0692,-78.9567,28.58,80,85,2.21,EC,1721762860
373,sault ste. marie,46.5168,-84.3333,18.31,94,100,3.09,CA,1721762861
374,gracemere,-23.4333,150.45,11.95,94,0,1.54,AU,1721762862
375,bonthe,7.5264,-12.505,25.47,80,72,5.04,SL,1721762864
376,bannockburn,56.0898,-3.9109,18.7,83,100,2.85,GB,1721762865
377,cabedelo,-6.9811,-34.8339,27.37,73,37,8.23,BR,1721762866
378,kruisfontein,-34.0033,24.7314,9.94,86,0,4.83,ZA,1721762867
379,st. john's,47.5649,-52.7093,24.53,46,100,6.17,CA,1721762868
380,kendari,-3.945,122.4989,22.67,95,31,0.55,ID,1721762869
381,piti village,13.4626,144.6933,28.03,88,0,1.54,GU,1721762871
382,mount isa,-20.7333,139.5,2.87,60,17,0.0,AU,1721762872
383,bull savanna,17.8868,-77.5902,29.19,63,0,10.41,JM,1721762873
384,jumla,29.2747,82.1838,16.52,97,100,1.1,NP,1721762874
385,turuntayevo,52.2,107.6167,15.05,99,72,0.95,RU,1721762875
386,homosassa springs,28.8036,-82.5759,33.97,70,45,0.89,US,1721762877
387,lazaro cardenas,17.9583,-102.2,31.5,60,84,4.4,MX,1721762878
388,trashi yangtse,27.6116,91.498,20.47,100,100,0.73,BT,1721762879
389,hassi messaoud,31.6804,6.0729,35.92,21,0,2.57,DZ,1721762880
390,praia da vitoria,38.7333,-27.0667,25.42,73,75,3.04,PT,1721762881
391,ciudad lazaro cardenas,17.9583,-102.2,31.5,60,84,4.4,MX,1721762883
392,hermanus,-34.4187,19.2345,11.56,79,97,4.6,ZA,1721762884
393,kilindoni,-7.9139,39.6668,24.98,74,9,6.85,TZ,1721762885
394,isangel,-19.55,169.2667,21.86,87,100,6.44,VU,1721762886
395,sao vicente,-23.9631,-46.3919,28.48,66,8,1.54,BR,1721762887
396,kuna,43.4918,-116.4201,36.02,29,0,2.57,US,1721762888
397,ratnagiri,16.9833,73.3,27.17,85,100,9.81,IN,1721762890
398,maracacume,-2.0428,-45.9592,31.83,49,100,1.26,BR,1721762891
399,susuman,62.7833,148.1667,18.1,78,100,0.7,RU,1721762892
400,masan,35.2081,128.5725,25.84,96,100,1.12,KR,1721762893
401,saipan,15.1355,145.701,27.39,89,0,3.09,MP,1721762895
402,xindian,36.7975,118.2944,25.31,88,100,1.89,CN,1721762896
403,beyneu,45.3167,55.2,32.17,20,0,3.03,KZ,1721762897
404,vytegra,61.0064,36.4481,16.89,64,0,1.53,RU,1721762898
405,altai,46.3722,96.2583,12.55,63,9,0.77,MN,1721762899
406,san jose del guaviare,2.5729,-72.6459,28.69,60,71,2.56,CO,1721762900
407,mejit,10.2753,170.8646,27.92,74,85,5.74,MH,1721762902
408,palembang,-2.9167,104.7458,27.05,74,20,3.6,ID,1721762903
409,murun-kuren,49.6342,100.1625,11.67,78,3,1.28,MN,1721762904
410,taroa,8.7058,171.2275,27.71,81,17,5.72,MH,1721762905
411,panyutyne,48.9333,36.2833,18.1,78,98,3.32,UA,1721762906
412,baghdad,33.3406,44.4009,36.95,19,0,2.57,IQ,1721762907
413,toba,34.4833,136.85,29.0,85,100,1.94,JP,1721762909
414,ballingry,56.1639,-3.3284,15.83,77,100,3.13,GB,1721762910
415,buala,-8.145,159.5921,26.36,81,90,2.63,SB,1721762911
416,ust'-ilimsk,58.0006,102.6619,18.5,94,100,1.75,RU,1721762912
417,kerikeri,-35.2268,173.9474,9.39,92,38,0.45,NZ,1721762913
418,sroda slaska,51.1641,16.5951,22.78,64,95,2.6,PL,1721762915
419,cidreira,-30.1811,-50.2056,18.68,77,80,3.42,BR,1721762916
420,howard springs,-12.497,131.047,18.95,95,92,1.84,AU,1721762917
421,tazovsky,67.4667,78.7,8.78,64,99,7.04,RU,1721762918
422,masterton,-40.9597,175.6575,7.39,84,100,2.65,NZ,1721762919
423,san fernando de apure,7.8878,-67.4724,27.9,82,77,1.76,VE,1721762920
424,garissa,-0.4536,39.6401,25.27,69,16,9.85,KE,1721762922
425,katabu,-4.9333,122.5167,21.8,96,41,1.45,ID,1721762923
426,kuqa,41.7278,82.9364,29.73,27,100,0.36,CN,1721762924
427,amol,36.4696,52.3507,24.53,77,1,1.12,IR,1721762925
428,maues,-3.3836,-57.7186,36.84,25,32,1.95,BR,1721762926
429,kudahuvadhoo,2.6708,72.8944,28.94,72,98,1.87,MV,1721762927
430,margate,51.3813,1.3862,19.61,82,72,2.54,GB,1721762929
431,minab,27.1467,57.0801,33.49,67,100,2.97,IR,1721762930
432,cill airne,52.05,-9.5167,17.66,80,100,2.12,IE,1721762931
433,ankang,32.68,109.0172,26.46,89,92,0.52,CN,1721762861
434,plastun,44.7561,136.2939,16.15,97,100,0.87,RU,1721762933
435,cestos city,5.46,-9.5828,25.26,77,90,4.69,LR,1721762934
436,polyarnyy,69.1989,33.4478,19.55,57,100,2.53,RU,1721762936
437,walvis bay,-22.9575,14.5053,11.53,87,14,0.0,NA,1721762937
438,carbonear,47.7332,-53.2148,24.78,59,100,5.38,CA,1721762938
439,mata-utu,-13.2816,-176.1745,27.09,72,76,9.86,WF,1721762939
440,dompu,-8.5356,118.4622,22.61,91,95,0.66,ID,1721762940
441,turinsk,58.0458,63.696,12.02,77,75,1.64,RU,1721762941
442,zeya,53.75,127.2667,18.01,73,27,1.34,RU,1721762944
443,sujiatun,41.6592,123.3392,23.1,94,100,2.0,CN,1721762945
444,pudasjarvi,65.3833,26.9167,19.14,63,6,1.88,FI,1721762946
445,hastings,50.8552,0.5729,21.25,81,100,1.45,GB,1721762947
446,whitecourt,54.1502,-115.6855,23.58,43,20,5.14,CA,1721762705
447,arkhangel'sk,64.5401,40.5433,17.06,77,20,3.0,RU,1721762951
448,nizhneudinsk,54.9076,99.0276,16.66,97,100,5.71,RU,1721762953
449,coquimbo,-29.9533,-71.3436,16.85,59,20,5.14,CL,1721762954
450,geraldton,-28.7667,114.6,8.23,93,10,2.06,AU,1721762955
451,kualakapuas,-3.0091,114.3876,22.62,98,97,0.61,ID,1721762956
452,kirovskiy,45.0917,133.5136,18.09,98,100,2.18,RU,1721762958
453,kawalu,-7.3817,108.2082,21.73,87,100,0.98,ID,1721762959
454,yicheng,31.3705,119.8703,27.18,92,83,4.29,CN,1721762960
455,beau vallon,-20.4189,57.6953,21.23,78,20,1.54,MU,1721762961
456,kuala tungkal,-0.8167,103.4667,25.45,86,100,3.57,ID,1721762962
457,port douglas,-16.4833,145.4667,21.4,81,100,6.82,AU,1721762964
458,holualoa,19.6228,-155.9522,26.97,70,0,2.57,US,1721762741
459,dinard,48.6314,-2.0614,17.21,79,100,3.6,FR,1721762966
460,illizi,26.4833,8.4667,40.89,8,2,2.9,DZ,1721762967
461,fortuna,40.5982,-124.1573,17.51,75,20,5.14,US,1721762968
462,inarajan village,13.2736,144.7484,28.08,81,99,5.25,GU,1721762971
463,okahao,-17.885,15.0667,20.45,14,2,3.64,NA,1721762972
464,bac lieu,9.285,105.7244,26.08,90,21,2.89,VN,1721762973
465,kayangel,8.0823,134.7173,26.39,87,100,6.1,PW,1721762974
466,balnearia,-31.0088,-62.6673,26.31,40,0,7.34,AR,1721762975
467,porto novo,6.4965,2.6036,25.9,82,28,4.07,BJ,1721762977
468,karamay,45.6004,84.8661,29.53,29,78,3.41,CN,1721762978
469,horta,38.5333,-28.6333,24.8,74,20,3.6,PT,1721762979
470,cassilandia,-19.1133,-51.7342,30.86,19,0,3.74,BR,1721762980
471,zhangjiajie,29.1294,110.4783,27.99,80,100,0.91,CN,1721762981
472,khost,33.3395,69.9204,30.89,43,77,0.54,AF,1721762982
473,huangpi,30.8845,114.3779,33.06,62,0,3.0,CN,1721762984
474,acarau,-2.8856,-40.12,28.03,66,27,9.31,BR,1721762985
475,kinablangan,7.6947,126.5503,25.2,79,100,1.28,PH,1721762986
476,mugia,43.1041,-9.2179,26.2,83,0,11.34,ES,1721762987
477,sorong,-0.8833,131.25,25.08,92,100,3.95,ID,1721762988
478,ancud,-41.8697,-73.8203,10.3,88,74,6.98,CL,1721762990
479,valparaiso,-33.0393,-71.6273,16.8,62,40,5.14,CL,1721762991
480,slave lake,55.2834,-114.769,20.99,56,75,7.2,CA,1721762992
481,kill devil hills,36.0307,-75.676,30.0,82,0,4.63,US,1721762993
482,jasper,37.2001,-94.3502,31.1,51,40,2.57,US,1721762994
483,erenhot,43.6475,111.9767,26.86,45,100,2.55,CN,1721762996
484,pacasmayo,-7.4006,-79.5714,19.59,70,2,7.32,PE,1721762997
485,gisborne,-38.6533,178.0042,7.87,76,93,4.64,NZ,1721762998
486,yuanping,38.7153,112.7575,24.83,63,100,1.0,CN,1721762999
487,new norfolk,-42.7826,147.0587,10.72,69,100,1.41,AU,1721763000
488,slavicin,49.088,17.8735,22.3,74,33,0.56,CZ,1721763001
489,plymouth,41.8334,-70.8328,24.56,80,100,1.54,US,1721763003
490,murzuq,25.9155,13.9184,34.46,13,0,2.6,LY,1721763004
491,huilong,31.8111,121.655,26.41,91,36,4.56,CN,1721763005
492,happy valley-goose bay,53.3168,-60.3315,22.17,37,75,7.2,CA,1721763007
493,nampula,-15.1165,39.2666,19.97,73,0,3.6,MZ,1721763008
494,tucumcari,35.1717,-103.725,31.08,30,0,2.57,US,1721763009
495,laojunmiao,39.8333,97.7333,15.86,60,0,1.36,CN,1721763010
496,sur,22.5667,59.5289,34.99,49,97,2.39,OM,1721763011
497,mezhdurechenskiy,59.6,65.9333,12.44,73,92,2.32,RU,1721763013
498,pakpattan,30.341,73.3866,32.49,53,100,1.89,PK,1721763014
499,turabah,21.2141,41.6331,29.18,22,100,7.46,SA,1721763015
500,ginir,7.1333,40.7,17.41,67,100,4.02,ET,1721763016
501,waingapu,-9.6567,120.2641,21.53,80,56,1.97,ID,1721763017
502,baihar,22.1,80.55,23.29,99,100,3.43,IN,1721763018
503,zanesville,39.9404,-82.0132,29.03,67,0,0.89,US,1721763020
504,suwayr,30.1171,40.3893,33.52,14,14,5.41,SA,1721763021
505,kattivakkam,13.2167,80.3167,29.42,83,100,6.42,IN,1721763022
506,evanston,42.0411,-87.6901,30.54,51,75,6.17,US,1721763023
507,robbah,33.2797,6.9098,35.8,29,0,0.42,DZ,1721763024
508,orkney,-26.9802,26.6727,11.86,17,6,1.86,ZA,1721763026
509,bamboo flat,11.7,92.7167,29.05,84,75,6.17,IN,1721763027
510,encheng,22.1839,112.3026,25.81,94,100,1.56,CN,1721763028
511,san pedro pochutla,15.7333,-96.4667,33.17,53,100,4.19,MX,1721763029
512,zaragoza,41.6561,-0.8773,36.38,22,0,4.63,ES,1721763030
513,dobrich,43.5667,27.8333,23.1,75,0,1.73,BG,1721763031
514,palermo,37.8167,13.5833,24.74,74,0,2.19,IT,1721763033
515,uglegorsk,49.0833,142.0333,13.62,95,98,6.33,RU,1721763034
516,yanchep,-31.55,115.6833,8.12,72,100,2.36,AU,1721763035
517,eyl,7.9803,49.8164,26.08,77,99,11.26,SO,1721763036
518,lindi,-10.0,39.7167,20.12,89,74,1.7,TZ,1721763037
519,mingguang,32.7802,117.9638,28.03,85,100,2.91,CN,1721763039
520,hadibu,12.65,54.0333,26.83,75,100,9.17,YE,1721763040
521,labytnangi,66.6572,66.4183,11.22,59,86,4.97,RU,1721763041
522,taltal,-25.4,-70.4833,17.03,58,0,3.07,CL,1721763042
523,northam,51.0333,-4.2167,17.59,91,100,3.28,GB,1721763043
524,nago,26.5881,127.9761,30.25,87,100,9.92,JP,1721763045
525,tataouine,32.9297,10.4518,25.18,60,0,4.73,TN,1721763046
526,belawan,3.7755,98.6832,26.16,85,100,2.24,ID,1721763047
527,nishinoomote,30.7333,131.0,28.47,84,94,5.26,JP,1721763048
528,joshimath,30.5667,79.5667,19.08,98,100,0.8,IN,1721763049
529,al kharijah,25.4514,30.5464,34.37,17,66,4.18,EG,1721763050
530,jayapura,-2.5333,140.7,23.66,97,100,0.98,ID,1721763052
531,choma,-16.8065,26.9531,16.11,35,0,1.89,ZM,1721763053
532,ghormach,35.7306,63.7826,29.8,23,0,3.59,AF,1721763054
533,hendala,6.9909,79.883,27.97,89,20,3.36,LK,1721763055
534,mapastepec,15.4333,-92.9,31.58,71,45,2.99,MX,1721763056
535,harstad,68.799,16.5293,16.8,96,100,4.02,NO,1721763059
536,piet retief,-27.0071,30.8132,9.21,66,75,1.49,ZA,1721763060
537,tukrah,32.5341,20.5791,27.01,70,0,4.61,LY,1721763061
538,severnoye,56.3491,78.3619,15.55,97,100,2.66,RU,1721763062
539,constitucion,-35.3333,-72.4167,12.86,80,100,3.49,CL,1721763064
540,colonia,50.9333,6.95,20.53,76,20,8.23,DE,1721763065
541,sumbawanga,-7.9667,31.6167,15.05,26,0,1.53,TZ,1721763066
542,fale old settlement,-9.3852,-171.2468,27.92,78,94,8.54,TK,1721763067
543,kiunga,-6.1219,141.2906,22.99,99,100,1.15,PG,1721763068
544,tanakpur,29.0833,80.1167,27.21,82,61,2.33,IN,1721763069
545,miches,18.9836,-69.0476,31.11,71,78,5.79,DO,1721763071
546,aral,40.5156,81.2636,29.0,32,4,7.84,CN,1721763072
547,naryn,41.4287,75.9911,13.13,66,100,2.69,KG,1721763073
548,salmon arm,50.6998,-119.3024,26.91,35,4,1.54,CA,1721763005
549,kavali,14.9167,79.9833,29.23,61,99,8.72,IN,1721763075
550,al bawiti,28.3492,28.8659,32.85,23,99,3.5,EG,1721763076
551,tantou,26.0314,119.5986,28.87,79,20,6.0,CN,1721763077
552,korla,41.7597,86.1469,28.33,29,4,3.36,CN,1721763079
553,grand-bassam,5.2118,-3.7388,24.98,88,92,2.87,CI,1721763080
554,puerto aysen,-45.4,-72.7,11.46,94,98,2.82,CL,1721763081
555,abepura,-2.6333,140.5833,23.45,100,40,1.03,ID,1721763082
556,sao paulo de olivenca,-3.3783,-68.8725,29.46,59,96,1.65,BR,1721763083
557,remire-montjoly,4.9167,-52.2667,32.02,62,0,7.72,GF,1721763085
558,karratha,-20.7377,116.8463,18.72,74,2,3.1,AU,1721763086
559,taoudenni,22.6783,-3.9836,40.94,18,0,0.36,ML,1721763087
560,hirara,24.8,125.2833,28.92,94,100,15.43,JP,1721763088
561,saint ann's bay,18.4358,-77.201,29.98,69,13,9.04,JM,1721763089
562,monrovia,6.3005,-10.7969,24.87,80,94,5.0,LR,1721763090
563,birzebbuga,35.8258,14.5269,27.38,69,0,3.6,MT,1721763092
564,tadine,-21.55,167.8833,20.32,76,100,4.85,NC,1721763093
565,balaklava,44.5,33.6,26.32,56,58,3.04,UA,1721763094
566,tessaoua,13.7574,7.9874,31.22,51,75,6.64,NE,1721763095
567,ha'il,27.5219,41.6907,34.01,17,0,5.14,SA,1721763096
568,mizan teferi,6.9833,35.5833,16.03,97,89,0.79,ET,1721763097
569,metlili chaamba,32.2667,3.6333,35.52,23,0,5.66,DZ,1721763100
570,lokomotivnyy,53.0118,60.5684,13.07,85,100,3.36,RU,1721763101
571,batticaloa,7.7102,81.6924,27.92,78,95,0.89,LK,1721763102
572,ibotirama,-12.1853,-43.2206,31.06,26,0,2.33,BR,1721763104
573,wahpeton,46.2652,-96.6059,25.51,83,20,2.57,US,1721763105
574,san julian,21.0167,-102.1667,19.12,71,100,2.47,MX,1721763106
575,uray,60.1247,64.7758,11.81,72,87,3.0,RU,1721763107
576,majene,-3.5403,118.9707,23.64,90,85,3.71,ID,1721763108
577,saynshand,44.8824,110.1163,25.82,46,100,5.57,MN,1721763110
578,jiuquan,39.7432,98.5174,17.38,59,1,1.38,CN,1721763111
579,turaif,31.6725,38.6637,32.14,20,0,6.17,SA,1721763112
580,sabalgarh,26.25,77.4,28.28,77,100,2.76,IN,1721763113
581,cartagena del chaira,1.3349,-74.8429,29.99,48,55,1.84,CO,1721763114
582,victorica,-36.2151,-65.4359,17.44,40,100,3.98,AR,1721763116
583,balkanabat,39.5108,54.3671,29.73,51,0,1.27,TM,1721763117
584,thal,35.4791,72.2439,14.95,78,7,0.85,PK,1721763118
585,kolonia,50.9333,6.95,20.32,76,20,6.17,DE,1721763119
586,hanceville,34.0607,-86.7675,28.98,70,97,1.22,US,1721763120
587,guadassuar,39.1782,-0.5176,30.4,61,0,3.26,ES,1721763122
588,san jose de jachal,-30.2406,-68.7469,23.18,5,0,14.24,AR,1721763123
589,kapuskasing,49.4169,-82.4331,19.05,45,100,4.12,CA,1721763124
590,kuching,1.55,110.3333,27.77,92,20,1.54,MY,1721763125
